{
  "metaData": {
    "requestParameters": {
      "busCount": 2,
      "expressbusCount": 0,
      "airportCount": 0,
      "subwayCount": 0,
      "maxWalkDistance": "26440.0",
      "locale": "ko",
      "endY": "37.54479452",
      "endX": "127.22591578",
      "wideareaRouteCount": 0,
      "subwayBusCount": 8,
      "startY": "37.51698683",
      "startX": "126.92847142",
      "ferryCount": 0,
      "trainCount": 0,
      "reqDttm": "20221201113344"
    },
    "plan": {
      "itineraries": [
        {
          "fare": {
            "regular": {
              "totalFare": 2900,
              "currency": {
                "symbol": "￦",
                "currency": "원",
                "currencyCode": "KRW"
              }
            }
          },
          "walkDistance": 729,
          "totalTime": 5307,
          "legs": [
            {
              "mode": "WALK",
              "sectionTime": 211,
              "distance": 260,
              "start": {
                "name": "출발지",
                "lon": 126.92847142,
                "lat": 37.51698683
              },
              "end": {
                "name": "샛강역1번출구.여의도자이",
                "lon": 126.9271611111111,
                "lat": 37.518975
              },
              "steps": [
                {
                  "streetName": "",
                  "distance": 6,
                  "description": "6m 이동",
                  "linestring": "126.92863,37.517082 126.92859,37.517124"
                },
                {
                  "streetName": "",
                  "distance": 39,
                  "description": "우회전 후 39m 이동 ",
                  "linestring": "126.92859,37.517124 126.928665,37.517467"
                },
                {
                  "streetName": "",
                  "distance": 44,
                  "description": "샛강역  1번출구 에서 좌회전 후 44m 이동 ",
                  "linestring": "126.928665,37.517467 126.92834,37.51775 126.928314,37.51774"
                },
                {
                  "streetName": "의사당대로",
                  "distance": 171,
                  "description": "샛강역  1번출구 에서 우회전 후 의사당대로 을 따라 171m 이동 ",
                  "linestring": "126.928314,37.51774 126.92766,37.518425 126.92714,37.518963"
                }
              ]
            },
            {
              "mode": "BUS",
              "routeColor": "53B332",
              "sectionTime": 56,
              "route": "마을:영등포11",
              "distance": 324,
              "start": {
                "name": "샛강역1번출구.여의도자이",
                "lon": 126.9271611111111,
                "lat": 37.518975
              },
              "passStopList": {
                "stationList": [
                  {
                    "index": 0,
                    "stationName": "샛강역1번출구.여의도자이",
                    "lon": "126.927161",
                    "lat": "37.518975",
                    "stationID": "754995"
                  },
                  {
                    "index": 1,
                    "stationName": "여의도역",
                    "lon": "126.924903",
                    "lat": "37.521283",
                    "stationID": "755200"
                  }
                ]
              },
              "end": {
                "name": "여의도역",
                "lon": 126.92490277777777,
                "lat": 37.521283333333336
              },
              "type": 3,
              "passShape": {
                "linestring": "126.927028,37.518892 126.924767,37.521197"
              }
            },
            {
              "mode": "TRANSFER",
              "sectionTime": 175,
              "distance": 0,
              "start": {
                "name": "여의도역",
                "lon": 126.92490277777777,
                "lat": 37.521283333333336
              },
              "end": {
                "name": "여의도",
                "lon": 126.9238111111111,
                "lat": 37.52148611111111
              },
              "passShape": {
                "linestring": "126.924903,37.521283 126.924672,37.521506 126.924636,37.521542 126.924642,37.521589 126.924147,37.521292 126.924125,37.521308 126.924039,37.521333 126.923975,37.521339 126.923928,37.521331 126.923811,37.521486"
              }
            },
            {
              "mode": "SUBWAY",
              "routeColor": "996CAC",
              "sectionTime": 3467,
              "route": "수도권5호선",
              "distance": 29879,
              "start": {
                "name": "여의도",
                "lon": 126.9238111111111,
                "lat": 37.52148611111111
              },
              "passStopList": {
                "stationList": [
                  {
                    "index": 0,
                    "stationName": "여의도",
                    "lon": "126.923811",
                    "lat": "37.521486",
                    "stationID": "526"
                  },
                  {
                    "index": 1,
                    "stationName": "여의나루",
                    "lon": "126.932831",
                    "lat": "37.526819",
                    "stationID": "527"
                  },
                  {
                    "index": 2,
                    "stationName": "마포",
                    "lon": "126.946069",
                    "lat": "37.539378",
                    "stationID": "528"
                  },
                  {
                    "index": 3,
                    "stationName": "공덕",
                    "lon": "126.951369",
                    "lat": "37.544161",
                    "stationID": "529"
                  },
                  {
                    "index": 4,
                    "stationName": "애오개",
                    "lon": "126.956753",
                    "lat": "37.553178",
                    "stationID": "530"
                  },
                  {
                    "index": 5,
                    "stationName": "충정로",
                    "lon": "126.963119",
                    "lat": "37.560008",
                    "stationID": "531"
                  },
                  {
                    "index": 6,
                    "stationName": "서대문",
                    "lon": "126.966669",
                    "lat": "37.565336",
                    "stationID": "532"
                  },
                  {
                    "index": 7,
                    "stationName": "광화문",
                    "lon": "126.976228",
                    "lat": "37.571644",
                    "stationID": "533"
                  },
                  {
                    "index": 8,
                    "stationName": "종로3가",
                    "lon": "126.990144",
                    "lat": "37.572581",
                    "stationID": "534"
                  },
                  {
                    "index": 9,
                    "stationName": "을지로4가",
                    "lon": "126.998075",
                    "lat": "37.567369",
                    "stationID": "535"
                  },
                  {
                    "index": 10,
                    "stationName": "동대문역사문화공원",
                    "lon": "127.005508",
                    "lat": "37.564675",
                    "stationID": "536"
                  },
                  {
                    "index": 11,
                    "stationName": "청구",
                    "lon": "127.013942",
                    "lat": "37.560197",
                    "stationID": "537"
                  },
                  {
                    "index": 12,
                    "stationName": "신금호",
                    "lon": "127.020683",
                    "lat": "37.554472",
                    "stationID": "538"
                  },
                  {
                    "index": 13,
                    "stationName": "행당",
                    "lon": "127.029544",
                    "lat": "37.557364",
                    "stationID": "539"
                  },
                  {
                    "index": 14,
                    "stationName": "왕십리",
                    "lon": "127.037189",
                    "lat": "37.561942",
                    "stationID": "540"
                  },
                  {
                    "index": 15,
                    "stationName": "마장",
                    "lon": "127.042972",
                    "lat": "37.565944",
                    "stationID": "541"
                  },
                  {
                    "index": 16,
                    "stationName": "답십리",
                    "lon": "127.052553",
                    "lat": "37.566964",
                    "stationID": "542"
                  },
                  {
                    "index": 17,
                    "stationName": "장한평",
                    "lon": "127.063825",
                    "lat": "37.561592",
                    "stationID": "543"
                  },
                  {
                    "index": 18,
                    "stationName": "군자",
                    "lon": "127.079056",
                    "lat": "37.557333",
                    "stationID": "544"
                  },
                  {
                    "index": 19,
                    "stationName": "아차산",
                    "lon": "127.089600",
                    "lat": "37.551653",
                    "stationID": "545"
                  },
                  {
                    "index": 20,
                    "stationName": "광나루",
                    "lon": "127.103614",
                    "lat": "37.545344",
                    "stationID": "546"
                  },
                  {
                    "index": 21,
                    "stationName": "천호",
                    "lon": "127.123956",
                    "lat": "37.538469",
                    "stationID": "547"
                  },
                  {
                    "index": 22,
                    "stationName": "강동",
                    "lon": "127.132378",
                    "lat": "37.535914",
                    "stationID": "548"
                  },
                  {
                    "index": 23,
                    "stationName": "길동",
                    "lon": "127.140006",
                    "lat": "37.537803",
                    "stationID": "549"
                  },
                  {
                    "index": 24,
                    "stationName": "굽은다리",
                    "lon": "127.142928",
                    "lat": "37.545567",
                    "stationID": "550"
                  },
                  {
                    "index": 25,
                    "stationName": "명일",
                    "lon": "127.144044",
                    "lat": "37.551450",
                    "stationID": "551"
                  },
                  {
                    "index": 26,
                    "stationName": "고덕",
                    "lon": "127.154142",
                    "lat": "37.554953",
                    "stationID": "552"
                  },
                  {
                    "index": 27,
                    "stationName": "상일동",
                    "lon": "127.166536",
                    "lat": "37.556739",
                    "stationID": "553"
                  },
                  {
                    "index": 28,
                    "stationName": "강일",
                    "lon": "127.175658",
                    "lat": "37.557406",
                    "stationID": "554"
                  },
                  {
                    "index": 29,
                    "stationName": "미사",
                    "lon": "127.192803",
                    "lat": "37.563139",
                    "stationID": "555"
                  }
                ]
              },
              "end": {
                "name": "미사",
                "lon": 127.19280277777777,
                "lat": 37.563138888888886
              },
              "type": 5,
              "passShape": {
                "linestring": "126.923831,37.521467 126.924139,37.521658 126.928597,37.524456 126.931089,37.525947 126.932189,37.526628 126.932275,37.526689 126.932625,37.526978 126.933425,37.527642 126.934114,37.528269 126.934314,37.528453 126.934747,37.528869 126.942075,37.536419 126.943125,37.537508 126.943369,37.537739 126.943536,37.537886 126.943697,37.538014 126.945242,37.539092 126.945856,37.539558 126.947047,37.540461 126.949161,37.541972 126.949403,37.542161 126.949739,37.542450 126.949958,37.542656 126.950344,37.543050 126.950506,37.543242 126.950533,37.543275 126.950553,37.543297 126.951025,37.543950 126.951225,37.544228 126.951475,37.544569 126.953403,37.547250 126.953775,37.547772 126.953958,37.548064 126.953964,37.548072 126.954369,37.548828 126.955936,37.551917 126.956581,37.553231 126.957106,37.554303 126.957800,37.555711 126.957811,37.555733 126.957822,37.555753 126.957836,37.555772 126.957847,37.555794 126.957861,37.555814 126.957875,37.555836 126.957889,37.555856 126.957903,37.555875 126.957917,37.555894 126.957931,37.555917 126.957944,37.555933 126.957958,37.555956 126.957975,37.555972 126.957992,37.555992 126.958006,37.556011 126.958022,37.556031 126.958039,37.556050 126.958056,37.556067 126.958075,37.556086 126.958092,37.556106 126.958108,37.556122 126.958808,37.556764 126.959458,37.557292 126.962275,37.559581 126.962675,37.559894 126.962814,37.560125 126.963294,37.560917 126.963850,37.561833 126.964056,37.562153 126.964269,37.562469 126.965511,37.564322 126.965733,37.564639 126.966067,37.565089 126.966128,37.565164 126.966408,37.565483 126.967206,37.566392 126.967275,37.566464 126.968917,37.568117 126.968933,37.568136 126.968956,37.568156 126.968975,37.568178 126.968994,37.568197 126.969014,37.568217 126.969036,37.568236 126.969056,37.568256 126.969078,37.568275 126.969100,37.568294 126.969119,37.568314 126.969142,37.568333 126.969167,37.568350 126.969189,37.568369 126.969211,37.568386 126.969233,37.568406 126.969258,37.568422 126.969281,37.568439 126.969306,37.568456 126.969331,37.568475 126.969353,37.568492 126.969378,37.568506 126.971431,37.569897 126.971703,37.570050 126.972250,37.570322 126.972383,37.570403 126.972650,37.570583 126.973581,37.571289 126.973717,37.571378 126.973850,37.571453 126.974033,37.571533 126.974281,37.571600 126.974503,37.571631 126.974733,37.571647 126.976228,37.571647 126.977031,37.571647 126.980692,37.571664 126.980806,37.571664 126.980917,37.571669 126.981031,37.571675 126.981142,37.571681 126.981253,37.571689 126.981367,37.571697 126.981478,37.571708 126.981589,37.571719 126.981700,37.571733 126.981811,37.571747 126.981922,37.571764 126.982031,37.571781 126.982142,37.571800 126.982253,37.571819 126.982361,37.571839 126.982469,37.571861 126.982578,37.571886 126.982686,37.571911 126.982794,37.571936 126.982900,37.571964 126.983008,37.571992 126.983192,37.572044 126.983375,37.572097 126.983561,37.572144 126.983747,37.572192 126.983933,37.572233 126.984125,37.572275 126.984314,37.572314 126.984503,37.572350 126.984692,37.572383 126.984883,37.572417 126.985075,37.572444 126.985267,37.572472 126.985461,37.572494 126.985653,37.572517 126.985847,37.572539 126.986042,37.572556 126.986236,37.572569 126.986431,37.572581 126.986625,37.572592 126.986819,37.572600 126.987014,37.572603 126.988800,37.572569 126.989253,37.572567 126.989867,37.572578 126.990144,37.572581 126.990400,37.572583 126.991544,37.572597 126.991639,37.572597 126.993003,37.572606 126.993025,37.572606 126.993047,37.572606 126.993069,37.572606 126.993092,37.572603 126.993114,37.572603 126.993136,37.572600 126.993158,37.572597 126.993181,37.572594 126.993203,37.572592 126.993225,37.572586 126.993247,37.572581 126.993267,37.572578 126.993289,37.572572 126.993311,37.572567 126.993331,37.572558 126.993353,37.572553 126.993375,37.572544 126.993394,37.572539 126.993414,37.572531 126.993433,37.572522 126.993453,37.572514 126.995675,37.571453 126.996056,37.571261 126.997092,37.570711 126.997125,37.570689 126.997272,37.570603 126.997453,37.570481 126.997486,37.570458 126.997517,37.570436 126.997547,37.570411 126.997575,37.570386 126.997603,37.570358 126.997631,37.570333 126.997653,37.570306 126.997678,37.570275 126.997700,37.570247 126.997719,37.570217 126.997739,37.570186 126.997758,37.570156 126.997775,37.570125 126.997789,37.570092 126.997803,37.570058 126.997814,37.570028 126.997825,37.569994 126.997833,37.569961 126.997839,37.569928 126.997844,37.569894 126.997850,37.569858 126.998067,37.567369 126.998108,37.566919 126.998153,37.566642 126.998181,37.566472 126.998217,37.566356 126.998267,37.566242 126.998328,37.566125 126.998392,37.566014 126.998464,37.565903 126.998539,37.565797 126.998622,37.565692 126.998708,37.565589 126.998803,37.565492 126.998903,37.565394 126.999006,37.565306 126.999114,37.565217 126.999228,37.565131 126.999344,37.565053 126.999467,37.564975 126.999594,37.564903 126.999722,37.564836 126.999856,37.564772 126.999994,37.564714 127.000133,37.564661 127.000275,37.564611 127.000419,37.564567 127.000483,37.564553 127.000558,37.564542 127.000650,37.564531 127.000725,37.564525 127.000783,37.564528 127.001658,37.564586 127.003350,37.564683 127.004317,37.564756 127.005044,37.564733 127.005508,37.564675 127.005667,37.564653 127.006281,37.564542 127.006317,37.564536 127.006353,37.564531 127.006389,37.564522 127.006425,37.564514 127.006458,37.564506 127.006494,37.564494 127.006528,37.564486 127.006564,37.564475 127.006597,37.564464 127.006631,37.564450 127.006664,37.564439 127.006694,37.564425 127.006728,37.564408 127.006758,37.564394 127.006792,37.564378 127.006819,37.564361 127.006850,37.564344 127.006881,37.564328 127.006908,37.564308 127.006936,37.564289 127.006964,37.564269 127.007014,37.564231 127.010700,37.561389 127.010731,37.561367 127.010764,37.561344 127.010794,37.561322 127.010828,37.561303 127.010861,37.561281 127.010894,37.561261 127.010931,37.561242 127.010964,37.561222 127.011000,37.561206 127.011036,37.561186 127.011072,37.561169 127.011108,37.561153 127.011144,37.561133 127.011181,37.561119 127.011219,37.561103 127.011256,37.561089 127.011294,37.561075 127.011333,37.561058 127.011369,37.561044 127.011408,37.561033 127.011450,37.561019 127.012167,37.560814 127.012797,37.560614 127.013461,37.560381 127.013783,37.560256 127.013942,37.560197 127.014625,37.559933 127.015369,37.559650 127.015386,37.559644 127.015403,37.559639 127.015419,37.559631 127.015436,37.559622 127.015453,37.559617 127.015467,37.559608 127.015483,37.559600 127.015497,37.559592 127.015514,37.559583 127.015528,37.559575 127.015542,37.559564 127.015556,37.559556 127.015569,37.559544 127.015583,37.559533 127.015594,37.559525 127.015608,37.559514 127.015619,37.559503 127.015631,37.559492 127.015644,37.559478 127.015656,37.559467 127.015667,37.559456 127.016708,37.558319 127.017517,37.557358 127.018647,37.555922 127.019161,37.555331 127.019425,37.555039 127.019622,37.554831 127.019631,37.554825 127.019639,37.554817 127.019647,37.554808 127.019656,37.554803 127.019664,37.554794 127.019675,37.554789 127.019683,37.554781 127.019692,37.554775 127.019700,37.554769 127.019708,37.554764 127.019719,37.554756 127.019728,37.554750 127.019739,37.554744 127.019747,37.554739 127.019758,37.554733 127.019767,37.554728 127.019778,37.554722 127.019789,37.554717 127.019800,37.554711 127.019808,37.554706 127.019819,37.554700 127.020028,37.554631 127.020375,37.554508 127.020583,37.554475 127.020683,37.554472 127.021544,37.554458 127.021656,37.554469 127.021697,37.554475 127.021739,37.554483 127.021778,37.554489 127.021819,37.554497 127.021861,37.554506 127.021900,37.554514 127.021942,37.554522 127.021981,37.554531 127.022022,37.554542 127.022064,37.554550 127.022103,37.554558 127.022142,37.554569 127.022183,37.554581 127.022222,37.554592 127.022264,37.554603 127.022303,37.554614 127.022342,37.554625 127.022381,37.554639 127.022419,37.554650 127.022458,37.554664 127.022497,37.554678 127.025817,37.555694 127.026233,37.555833 127.026517,37.555939 127.026842,37.556072 127.027033,37.556158 127.029547,37.557358 127.030203,37.557675 127.030981,37.558056 127.031258,37.558211 127.032717,37.559119 127.035900,37.561136 127.036264,37.561367 127.037189,37.561942 127.037650,37.562228 127.038308,37.562647 127.038317,37.562653 127.041961,37.565467 127.042214,37.565644 127.042856,37.566058 127.043956,37.566769 127.046308,37.568328 127.046469,37.568417 127.046658,37.568517 127.046869,37.568608 127.047044,37.568675 127.047142,37.568714 127.047331,37.568758 127.047522,37.568797 127.047717,37.568828 127.047814,37.568839 127.047911,37.568850 127.048108,37.568867 127.048306,37.568872 127.048503,37.568872 127.048700,37.568864 127.048897,37.568850 127.049092,37.568825 127.049286,37.568794 127.049478,37.568756 127.049667,37.568708 127.049850,37.568656 127.050033,37.568594 127.050211,37.568528 127.050383,37.568453 127.050553,37.568369 127.050717,37.568283 127.050875,37.568189 127.051028,37.568089 127.052553,37.566964 127.057828,37.563069 127.057914,37.563008 127.058000,37.562947 127.058089,37.562889 127.058181,37.562831 127.058275,37.562775 127.058369,37.562719 127.058464,37.562669 127.058561,37.562617 127.058661,37.562569 127.058761,37.562522 127.058864,37.562478 127.058967,37.562433 127.059069,37.562394 127.059175,37.562356 127.059283,37.562317 127.059389,37.562283 127.059500,37.562250 127.059608,37.562219 127.059719,37.562189 127.059831,37.562164 127.059942,37.562139 127.061669,37.561886 127.063825,37.561592 127.065286,37.561394 127.069183,37.560800 127.070533,37.560606 127.070814,37.560544 127.071131,37.560458 127.071383,37.560378 127.075564,37.558686 127.079056,37.557333 127.079506,37.557161 127.086556,37.554433 127.087156,37.554181 127.087258,37.554142 127.087358,37.554100 127.087458,37.554056 127.087558,37.554014 127.087658,37.553967 127.087756,37.553917 127.087850,37.553867 127.087944,37.553817 127.088036,37.553764 127.088128,37.553708 127.088217,37.553653 127.088306,37.553594 127.088392,37.553533 127.088478,37.553472 127.088558,37.553411 127.088639,37.553344 127.088719,37.553281 127.088797,37.553214 127.088872,37.553144 127.088944,37.553075 127.089017,37.553006 127.089364,37.552544 127.089747,37.551850 127.089814,37.551725 127.090158,37.551081 127.090208,37.551000 127.090542,37.550497 127.090589,37.550428 127.090639,37.550358 127.090692,37.550292 127.090747,37.550225 127.090806,37.550158 127.090864,37.550097 127.090928,37.550033 127.090992,37.549975 127.091058,37.549914 127.091128,37.549858 127.091200,37.549803 127.091275,37.549750 127.091350,37.549697 127.091428,37.549647 127.091506,37.549600 127.091589,37.549553 127.091669,37.549508 127.091756,37.549467 127.091842,37.549425 127.091931,37.549389 127.092019,37.549353 127.094042,37.548639 127.102342,37.545714 127.103614,37.545344 127.103789,37.545292 127.105308,37.544847 127.118747,37.540981 127.118794,37.540967 127.118839,37.540953 127.118883,37.540936 127.118928,37.540919 127.118972,37.540903 127.119017,37.540886 127.119058,37.540867 127.119103,37.540850 127.119147,37.540831 127.119189,37.540811 127.119231,37.540792 127.119275,37.540772 127.119317,37.540753 127.119358,37.540731 127.119400,37.540708 127.119439,37.540689 127.119481,37.540667 127.119519,37.540642 127.119558,37.540619 127.119600,37.540597 127.119639,37.540572 127.121431,37.539506 127.121803,37.539300 127.121994,37.539206 127.122383,37.539022 127.122686,37.538894 127.123094,37.538742 127.123411,37.538642 127.123956,37.538469 127.125000,37.538139 127.131139,37.536294 127.132367,37.535889 127.132400,37.535878 127.137453,37.534417 127.137544,37.534408 127.137639,37.534406 127.137733,37.534408 127.137828,37.534414 127.137919,37.534425 127.138011,37.534442 127.138103,37.534464 127.138189,37.534489 127.138275,37.534519 127.138358,37.534556 127.138439,37.534594 127.138514,37.534639 127.138589,37.534686 127.138656,37.534736 127.138719,37.534792 127.138778,37.534850 127.138833,37.534911 127.138881,37.534975 127.138925,37.535042 127.138964,37.535108 127.138994,37.535181 127.140014,37.537800 127.140217,37.538325 127.140742,37.539814 127.142622,37.544719 127.142928,37.545567 127.143175,37.546239 127.143208,37.546383 127.143247,37.546597 127.143628,37.548800 127.144000,37.550967 127.144044,37.551450 127.144050,37.551528 127.144086,37.552222 127.144094,37.552314 127.144331,37.554150 127.144339,37.554189 127.144347,37.554228 127.144361,37.554267 127.144378,37.554306 127.144400,37.554342 127.144422,37.554375 127.144447,37.554411 127.144478,37.554442 127.144508,37.554472 127.144542,37.554503 127.144578,37.554531 127.144617,37.554556 127.144656,37.554581 127.144700,37.554600 127.144742,37.554619 127.144789,37.554636 127.144833,37.554650 127.144883,37.554664 127.144931,37.554672 127.144981,37.554678 127.145031,37.554683 127.150192,37.554683 127.151158,37.554689 127.151386,37.554697 127.151608,37.554714 127.151833,37.554736 127.153303,37.554936 127.154119,37.555053 127.155142,37.555203 127.160342,37.555914 127.164906,37.556539 127.165353,37.556592 127.166564,37.556742 127.168131,37.556964 127.169539,37.557131 127.170211,37.557133 127.171206,37.557178 127.172175,37.557192 127.173269,37.557194 127.173903,37.557194 127.174550,37.557239 127.175181,37.557314 127.175658,37.557406 127.181197,37.558697 127.185625,37.559722 127.186867,37.559964 127.187450,37.560275 127.188167,37.560908 127.188839,37.561592 127.189494,37.562022 127.189958,37.562272 127.190617,37.562550 127.191619,37.562814 127.192803,37.563139"
              }
            },
            {
              "mode": "TRANSFER",
              "sectionTime": 510,
              "distance": 0,
              "start": {
                "name": "미사",
                "lon": 127.19280277777777,
                "lat": 37.563138888888886
              },
              "end": { "name": "미사역", "lon": 127.192575, "lat": 37.5634 },
              "passShape": {
                "linestring": "127.192803,37.563139 127.192800,37.563297 127.192486,37.563219 127.192456,37.563300 127.192594,37.563333 127.192575,37.563400"
              }
            },
            {
              "mode": "BUS",
              "routeColor": "FF3300",
              "sectionTime": 663,
              "route": "직행좌석:9302",
              "distance": 3831,
              "start": { "name": "미사역", "lon": 127.192575, "lat": 37.5634 },
              "passStopList": {
                "stationList": [
                  {
                    "index": 0,
                    "stationName": "미사역",
                    "lon": "127.192575",
                    "lat": "37.563400",
                    "stationID": "774847"
                  },
                  {
                    "index": 1,
                    "stationName": "청아초등학교.신안인스빌.브라운스톤",
                    "lon": "127.195319",
                    "lat": "37.558425",
                    "stationID": "774657"
                  },
                  {
                    "index": 2,
                    "stationName": "풍경채1단지.덕풍중학교",
                    "lon": "127.198942",
                    "lat": "37.554667",
                    "stationID": "774460"
                  },
                  {
                    "index": 3,
                    "stationName": "하남풍산역.꽃뫼마을1단지",
                    "lon": "127.201597",
                    "lat": "37.552778",
                    "stationID": "774385"
                  },
                  {
                    "index": 4,
                    "stationName": "하남풍산역.덕풍지구대",
                    "lon": "127.204858",
                    "lat": "37.551503",
                    "stationID": "774329"
                  },
                  {
                    "index": 5,
                    "stationName": "나룰.풍산근린3호공원",
                    "lon": "127.206564",
                    "lat": "37.551283",
                    "stationID": "774316"
                  },
                  {
                    "index": 6,
                    "stationName": "새뜰마을3단지",
                    "lon": "127.209317",
                    "lat": "37.550000",
                    "stationID": "774256"
                  },
                  {
                    "index": 7,
                    "stationName": "신평마을앞",
                    "lon": "127.211597",
                    "lat": "37.547831",
                    "stationID": "774148"
                  },
                  {
                    "index": 8,
                    "stationName": "호반써밋에듀파크",
                    "lon": "127.211408",
                    "lat": "37.546317",
                    "stationID": "774087"
                  },
                  {
                    "index": 9,
                    "stationName": "대명루첸.신평마을",
                    "lon": "127.213778",
                    "lat": "37.546147",
                    "stationID": "774074"
                  },
                  {
                    "index": 10,
                    "stationName": "유니온타워.에일린의뜰",
                    "lon": "127.218314",
                    "lat": "37.545472",
                    "stationID": "774037"
                  },
                  {
                    "index": 11,
                    "stationName": "스타필드하남",
                    "lon": "127.221825",
                    "lat": "37.544744",
                    "stationID": "774003"
                  },
                  {
                    "index": 12,
                    "stationName": "스타필드하남주차장",
                    "lon": "127.224064",
                    "lat": "37.544100",
                    "stationID": "773964"
                  }
                ]
              },
              "end": {
                "name": "스타필드하남주차장",
                "lon": 127.22406388888889,
                "lat": 37.5441
              },
              "type": 4,
              "passShape": {
                "linestring": "127.192661,37.563419 127.193217,37.561989 127.193497,37.561283 127.193672,37.560911 127.193742,37.560778 127.194047,37.560281 127.194803,37.559217 127.195383,37.558453 127.197458,37.555725 127.197633,37.555514 127.198008,37.555256 127.198958,37.554686 127.200081,37.554014 127.200219,37.553919 127.201156,37.553178 127.201578,37.552875 127.201647,37.552833 127.202061,37.552586 127.203347,37.551911 127.203561,37.551828 127.203686,37.551786 127.203858,37.551722 127.204367,37.551614 127.204867,37.551539 127.206147,37.551353 127.206567,37.551300 127.206889,37.551261 127.207106,37.551214 127.207328,37.551139 127.207575,37.551031 127.208414,37.550542 127.208522,37.550478 127.209339,37.550022 127.210783,37.549211 127.210936,37.549117 127.211850,37.548567 127.212128,37.548319 127.211644,37.547803 127.210642,37.546731 127.210642,37.546658 127.210711,37.546569 127.211419,37.546344 127.211453,37.546333 127.212286,37.546214 127.212422,37.546194 127.212808,37.546139 127.213075,37.546122 127.213781,37.546144 127.214344,37.546164 127.214936,37.546150 127.215239,37.546086 127.216025,37.545797 127.216778,37.545664 127.217483,37.545608 127.218311,37.545469 127.220997,37.545019 127.221153,37.544956 127.221831,37.544756 127.223639,37.544225 127.224075,37.544128"
              }
            },
            {
              "mode": "WALK",
              "sectionTime": 225,
              "distance": 275,
              "start": {
                "name": "스타필드하남주차장",
                "lon": 127.22406388888889,
                "lat": 37.5441
              },
              "end": {
                "name": "도착지",
                "lon": 127.22591578,
                "lat": 37.54479452
              },
              "steps": [
                {
                  "streetName": "하남유니온로",
                  "distance": 146,
                  "description": "하남유니온로 을 따라 146m 이동",
                  "linestring": "127.22408,37.544144 127.22449,37.54402 127.22563,37.54369"
                },
                {
                  "streetName": "보행자도로",
                  "distance": 22,
                  "description": "좌측 횡단보도 후 보행자도로 을 따라 22m 이동 ",
                  "linestring": "127.22563,37.54369 127.2257,37.543877"
                },
                {
                  "streetName": "",
                  "distance": 107,
                  "description": "우회전 후 107m 이동 ",
                  "linestring": "127.2257,37.543877 127.22574,37.54387 127.225845,37.5439 127.22616,37.544456 127.22627,37.544674"
                }
              ]
            }
          ],
          "walkTime": 1121,
          "transferCount": 2,
          "totalDistance": 34659,
          "pathType": 3
        },
        {
          "fare": {
            "regular": {
              "totalFare": 2900,
              "currency": {
                "symbol": "￦",
                "currency": "원",
                "currencyCode": "KRW"
              }
            }
          },
          "walkDistance": 425,
          "totalTime": 6283,
          "legs": [
            {
              "mode": "WALK",
              "sectionTime": 107,
              "distance": 123,
              "start": {
                "name": "출발지",
                "lon": 126.92847142,
                "lat": 37.51698683
              },
              "end": {
                "name": "샛강",
                "lon": 126.929225,
                "lat": 37.517072222222225
              },
              "steps": [
                {
                  "streetName": "",
                  "distance": 4,
                  "description": "4m 이동",
                  "linestring": "126.92863,37.517082 126.92865,37.517056"
                },
                {
                  "streetName": "",
                  "distance": 62,
                  "description": "좌회전 후 62m 이동 ",
                  "linestring": "126.92865,37.517056 126.92917,37.517395 126.9292,37.517384"
                },
                {
                  "streetName": "여의대방로",
                  "distance": 36,
                  "description": "샛강역  3번출구 에서 직진 후 여의대방로 을 따라 36m 이동 ",
                  "linestring": "126.9292,37.517384 126.92904,37.517277 126.92902,37.517197 126.92904,37.517128"
                },
                {
                  "streetName": "여의동로",
                  "distance": 21,
                  "description": "여의동로, 21m",
                  "linestring": "126.92904,37.517128 126.92905,37.517075 126.929054,37.517067 126.929085,37.517067 126.92922,37.517075"
                }
              ]
            },
            {
              "mode": "SUBWAY",
              "routeColor": "003DA5",
              "sectionTime": 162,
              "route": "신림선",
              "distance": 598,
              "start": {
                "name": "샛강",
                "lon": 126.929225,
                "lat": 37.517072222222225
              },
              "passStopList": {
                "stationList": [
                  {
                    "index": 0,
                    "stationName": "샛강",
                    "lon": "126.929225",
                    "lat": "37.517072",
                    "stationID": "4401"
                  },
                  {
                    "index": 1,
                    "stationName": "대방",
                    "lon": "126.925236",
                    "lat": "37.512714",
                    "stationID": "4402"
                  }
                ]
              },
              "end": {
                "name": "대방",
                "lon": 126.9252361111111,
                "lat": 37.51271388888889
              },
              "type": 116,
              "passShape": {
                "linestring": "126.929225,37.517072 126.928789,37.516597 126.928603,37.516425 126.928500,37.516192 126.928414,37.515939 126.928306,37.515592 126.928208,37.515428 126.928117,37.515292 126.928011,37.515194 126.927439,37.514750 126.926244,37.513836 126.925956,37.513619 126.925753,37.513422 126.925536,37.513203 126.925458,37.513058 126.925236,37.512714"
              }
            },
            {
              "mode": "TRANSFER",
              "sectionTime": 310,
              "distance": 0,
              "start": {
                "name": "대방",
                "lon": 126.9252361111111,
                "lat": 37.51271388888889
              },
              "end": {
                "name": "대방역",
                "lon": 126.925,
                "lat": 37.512683333333335
              },
              "passShape": {
                "linestring": "126.925236,37.512714 126.925189,37.512639 126.925000,37.512683"
              }
            },
            {
              "mode": "BUS",
              "routeColor": "0068B7",
              "sectionTime": 1570,
              "route": "간선:360",
              "distance": 10556,
              "start": {
                "name": "대방역",
                "lon": 126.925,
                "lat": 37.512683333333335
              },
              "passStopList": {
                "stationList": [
                  {
                    "index": 0,
                    "stationName": "대방역",
                    "lon": "126.925000",
                    "lat": "37.512683",
                    "stationID": "796574"
                  },
                  {
                    "index": 1,
                    "stationName": "현대아파트",
                    "lon": "126.931328",
                    "lat": "37.513183",
                    "stationID": "754600"
                  },
                  {
                    "index": 2,
                    "stationName": "노량진수산시장.CTS기독교TV",
                    "lon": "126.938386",
                    "lat": "37.513392",
                    "stationID": "754615"
                  },
                  {
                    "index": 3,
                    "stationName": "노량진역",
                    "lon": "126.943792",
                    "lat": "37.513731",
                    "stationID": "754638"
                  },
                  {
                    "index": 4,
                    "stationName": "노들역",
                    "lon": "126.949244",
                    "lat": "37.512831",
                    "stationID": "754566"
                  },
                  {
                    "index": 5,
                    "stationName": "동작실버센터입구",
                    "lon": "126.956683",
                    "lat": "37.513067",
                    "stationID": "754582"
                  },
                  {
                    "index": 6,
                    "stationName": "흑석동효사정앞",
                    "lon": "126.960778",
                    "lat": "37.511539",
                    "stationID": "754449"
                  },
                  {
                    "index": 7,
                    "stationName": "흑석역.명수대현대아파트",
                    "lon": "126.965206",
                    "lat": "37.507458",
                    "stationID": "754124"
                  },
                  {
                    "index": 8,
                    "stationName": "비계",
                    "lon": "126.968106",
                    "lat": "37.506356",
                    "stationID": "754024"
                  },
                  {
                    "index": 9,
                    "stationName": "흑석동한강현대아파트",
                    "lon": "126.971044",
                    "lat": "37.505567",
                    "stationID": "753955"
                  },
                  {
                    "index": 10,
                    "stationName": "동작역.국립현충원",
                    "lon": "126.976731",
                    "lat": "37.502692",
                    "stationID": "753691"
                  },
                  {
                    "index": 11,
                    "stationName": "구반포역.세화고등학교",
                    "lon": "126.989106",
                    "lat": "37.501750",
                    "stationID": "753609"
                  },
                  {
                    "index": 12,
                    "stationName": "신반포역.세화여중고",
                    "lon": "126.994858",
                    "lat": "37.503114",
                    "stationID": "753720"
                  },
                  {
                    "index": 13,
                    "stationName": "고속터미널",
                    "lon": "127.004000",
                    "lat": "37.505814",
                    "stationID": "772742"
                  },
                  {
                    "index": 14,
                    "stationName": "반포역",
                    "lon": "127.011156",
                    "lat": "37.507989",
                    "stationID": "772813"
                  },
                  {
                    "index": 15,
                    "stationName": "논현사거리.논현역4번출구",
                    "lon": "127.019586",
                    "lat": "37.510431",
                    "stationID": "772880"
                  },
                  {
                    "index": 16,
                    "stationName": "논현역",
                    "lon": "127.023164",
                    "lat": "37.507167",
                    "stationID": "772780"
                  },
                  {
                    "index": 17,
                    "stationName": "지하철2호선강남역(중)",
                    "lon": "127.025761",
                    "lat": "37.501736",
                    "stationID": "772608"
                  },
                  {
                    "index": 18,
                    "stationName": "강남역.역삼세무서",
                    "lon": "127.029328",
                    "lat": "37.498250",
                    "stationID": "772486"
                  }
                ]
              },
              "end": {
                "name": "강남역.역삼세무서",
                "lon": 127.02932777777778,
                "lat": 37.49825
              },
              "type": 11,
              "passShape": {
                "linestring": "126.924975,37.512622 126.925064,37.512600 126.925300,37.512567 126.925492,37.512547 126.925781,37.512550 126.926367,37.512633 126.927714,37.512942 126.928514,37.513131 126.928750,37.513164 126.929067,37.513183 126.931328,37.513150 126.931775,37.513142 126.931953,37.513142 126.934692,37.513125 126.936622,37.513250 126.936794,37.513264 126.938389,37.513364 126.940103,37.513469 126.940283,37.513481 126.943794,37.513697 126.944186,37.513719 126.944367,37.513728 126.944978,37.513725 126.945217,37.513700 126.945475,37.513656 126.946736,37.513367 126.949244,37.512828 126.949983,37.512667 126.952119,37.512608 126.952258,37.512622 126.953708,37.512583 126.954131,37.512578 126.954372,37.512606 126.954608,37.512656 126.954919,37.512758 126.955017,37.512814 126.955392,37.513042 126.955678,37.513214 126.956211,37.513311 126.956358,37.513311 126.956500,37.513289 126.956756,37.513158 126.958000,37.512539 126.958267,37.512458 126.958536,37.512325 126.958700,37.512267 126.960328,37.511794 126.960692,37.511653 126.960817,37.511592 126.961003,37.511500 126.961267,37.511339 126.961533,37.511144 126.961722,37.510953 126.962897,37.509644 126.962958,37.509558 126.963775,37.508700 126.963831,37.508636 126.964225,37.508200 126.964433,37.508008 126.964939,37.507678 126.965247,37.507517 126.965247,37.507517 126.965575,37.507372 126.966903,37.506878 126.967025,37.506831 126.968142,37.506414 126.969769,37.505808 126.970158,37.505719 126.970475,37.505664 126.971053,37.505633 126.971153,37.505628 126.972114,37.505681 126.972322,37.505664 126.972567,37.505619 126.972789,37.505558 126.974400,37.504850 126.974575,37.504756 126.974800,37.504603 126.975058,37.504367 126.975494,37.503917 126.976800,37.502739 126.976961,37.502592 126.977178,37.502447 126.977694,37.502192 126.978014,37.502078 126.978347,37.501978 126.978808,37.501886 126.979531,37.501828 126.979844,37.501822 126.980692,37.501789 126.981119,37.501736 126.981747,37.501550 126.982419,37.501328 126.983175,37.500917 126.984003,37.500442 126.984664,37.500000 126.984764,37.499931 126.984847,37.499836 126.985136,37.499908 126.985244,37.500000 126.985461,37.500178 126.986739,37.501219 126.989117,37.501717 126.992647,37.502456 126.994872,37.503089 126.995042,37.503136 126.995175,37.503175 127.000000,37.504556 127.000675,37.504753 127.001053,37.504906 127.001219,37.504967 127.003992,37.505833 127.004433,37.505975 127.008975,37.507314 127.009144,37.507364 127.011164,37.507969 127.015036,37.509128 127.019553,37.510497 127.021278,37.511019 127.023125,37.507156 127.024369,37.504561 127.024433,37.504428 127.025736,37.501728 127.026572,37.500000 127.026856,37.499408 127.027367,37.498353 127.027525,37.498025 127.027758,37.497942 127.028494,37.498164 127.029256,37.498397"
              }
            },
            {
              "mode": "TRANSFER",
              "sectionTime": 1045,
              "distance": 0,
              "start": {
                "name": "강남역.역삼세무서",
                "lon": 127.02932777777778,
                "lat": 37.49825
              },
              "end": {
                "name": "강남역.역삼세무서",
                "lon": 127.02932777777778,
                "lat": 37.49825
              },
              "passShape": {
                "linestring": "127.029328,37.498250 127.029328,37.498250"
              }
            },
            {
              "mode": "BUS",
              "routeColor": "FF3300",
              "sectionTime": 2864,
              "route": "직행좌석:9303",
              "distance": 22836,
              "start": {
                "name": "강남역.역삼세무서",
                "lon": 127.02932777777778,
                "lat": 37.49825
              },
              "passStopList": {
                "stationList": [
                  {
                    "index": 0,
                    "stationName": "강남역.역삼세무서",
                    "lon": "127.029328",
                    "lat": "37.498250",
                    "stationID": "772486"
                  },
                  {
                    "index": 1,
                    "stationName": "역삼역.포스코타워역삼",
                    "lon": "127.033675",
                    "lat": "37.499575",
                    "stationID": "772528"
                  },
                  {
                    "index": 2,
                    "stationName": "한국자산신탁.센터필드",
                    "lon": "127.044075",
                    "lat": "37.502756",
                    "stationID": "772646"
                  },
                  {
                    "index": 3,
                    "stationName": "선릉역",
                    "lon": "127.050331",
                    "lat": "37.504675",
                    "stationID": "772705"
                  },
                  {
                    "index": 4,
                    "stationName": "포스코빌딩",
                    "lon": "127.054911",
                    "lat": "37.506089",
                    "stationID": "772747"
                  },
                  {
                    "index": 5,
                    "stationName": "한국무역센터.삼성역",
                    "lon": "127.061644",
                    "lat": "37.508181",
                    "stationID": "772812"
                  },
                  {
                    "index": 6,
                    "stationName": "강남경찰서.강남운전면허시험장",
                    "lon": "127.067053",
                    "lat": "37.509789",
                    "stationID": "772856"
                  },
                  {
                    "index": 7,
                    "stationName": "잠실종합운동장",
                    "lon": "127.072544",
                    "lat": "37.510547",
                    "stationID": "772877"
                  },
                  {
                    "index": 8,
                    "stationName": "잠실새내역4번출구",
                    "lon": "127.084325",
                    "lat": "37.511461",
                    "stationID": "772914"
                  },
                  {
                    "index": 9,
                    "stationName": "잠실트리지움아파트앞",
                    "lon": "127.091203",
                    "lat": "37.511528",
                    "stationID": "772915"
                  },
                  {
                    "index": 10,
                    "stationName": "잠실역",
                    "lon": "127.099483",
                    "lat": "37.514642",
                    "stationID": "773012"
                  },
                  {
                    "index": 11,
                    "stationName": "미사강변리버스위트칸타빌.리슈빌",
                    "lon": "127.181308",
                    "lat": "37.573944",
                    "stationID": "775198"
                  },
                  {
                    "index": 12,
                    "stationName": "미사강변스타힐스.단독주택1단지",
                    "lon": "127.183147",
                    "lat": "37.570228",
                    "stationID": "775070"
                  },
                  {
                    "index": 13,
                    "stationName": "미사2동행정복지센터.하남시미사보건센터",
                    "lon": "127.184878",
                    "lat": "37.567389",
                    "stationID": "774983"
                  },
                  {
                    "index": 14,
                    "stationName": "미사강변푸르지오.하우스디더레이크",
                    "lon": "127.186100",
                    "lat": "37.562750",
                    "stationID": "774830"
                  },
                  {
                    "index": 15,
                    "stationName": "미사1동행정복지센터.하남고등학교.장애인복지관",
                    "lon": "127.187425",
                    "lat": "37.559442",
                    "stationID": "774701"
                  },
                  {
                    "index": 16,
                    "stationName": "하남고용센터.센트럴자이.더샵센트럴포레",
                    "lon": "127.186528",
                    "lat": "37.555456",
                    "stationID": "774526"
                  },
                  {
                    "index": 17,
                    "stationName": "미사우체국.더샵센트럴포레.동원로얄듀크",
                    "lon": "127.184783",
                    "lat": "37.552722",
                    "stationID": "774383"
                  },
                  {
                    "index": 18,
                    "stationName": "하남시청소년수련관.청소년상담복지센터",
                    "lon": "127.190964",
                    "lat": "37.552439",
                    "stationID": "774368"
                  },
                  {
                    "index": 19,
                    "stationName": "아이테코.이편한세상미사",
                    "lon": "127.194283",
                    "lat": "37.553969",
                    "stationID": "774439"
                  },
                  {
                    "index": 20,
                    "stationName": "제일풍경채.신안인스빌리베라",
                    "lon": "127.196864",
                    "lat": "37.555050",
                    "stationID": "774495"
                  },
                  {
                    "index": 21,
                    "stationName": "풍경채1단지.덕풍중학교",
                    "lon": "127.198942",
                    "lat": "37.554667",
                    "stationID": "774460"
                  },
                  {
                    "index": 22,
                    "stationName": "하남풍산역.꽃뫼마을1단지",
                    "lon": "127.201597",
                    "lat": "37.552778",
                    "stationID": "774385"
                  },
                  {
                    "index": 23,
                    "stationName": "하남풍산역.덕풍지구대",
                    "lon": "127.204858",
                    "lat": "37.551503",
                    "stationID": "774329"
                  },
                  {
                    "index": 24,
                    "stationName": "나룰.풍산근린3호공원",
                    "lon": "127.206564",
                    "lat": "37.551283",
                    "stationID": "774316"
                  },
                  {
                    "index": 25,
                    "stationName": "새뜰마을3단지",
                    "lon": "127.209317",
                    "lat": "37.550000",
                    "stationID": "774256"
                  },
                  {
                    "index": 26,
                    "stationName": "신평마을앞",
                    "lon": "127.211597",
                    "lat": "37.547831",
                    "stationID": "774148"
                  },
                  {
                    "index": 27,
                    "stationName": "호반써밋에듀파크",
                    "lon": "127.211408",
                    "lat": "37.546317",
                    "stationID": "774087"
                  },
                  {
                    "index": 28,
                    "stationName": "대명루첸.신평마을",
                    "lon": "127.213778",
                    "lat": "37.546147",
                    "stationID": "774074"
                  },
                  {
                    "index": 29,
                    "stationName": "유니온타워.에일린의뜰",
                    "lon": "127.218314",
                    "lat": "37.545472",
                    "stationID": "774037"
                  },
                  {
                    "index": 30,
                    "stationName": "스타필드하남",
                    "lon": "127.221825",
                    "lat": "37.544744",
                    "stationID": "774003"
                  },
                  {
                    "index": 31,
                    "stationName": "스타필드하남주차장",
                    "lon": "127.224064",
                    "lat": "37.544100",
                    "stationID": "773964"
                  }
                ]
              },
              "end": {
                "name": "스타필드하남주차장",
                "lon": 127.22406388888889,
                "lat": 37.5441
              },
              "type": 4,
              "passShape": {
                "linestring": "127.029256,37.498397 127.033278,37.499631 127.033611,37.499719 127.033631,37.499725 127.033886,37.499817 127.034481,37.500000 127.036183,37.500519 127.036242,37.500536 127.036878,37.500731 127.037044,37.500781 127.042739,37.502522 127.042906,37.502572 127.044000,37.502906 127.047153,37.503869 127.048972,37.504394 127.049142,37.504444 127.050261,37.504811 127.050914,37.505025 127.054842,37.506236 127.056586,37.506775 127.056756,37.506828 127.059553,37.507694 127.061578,37.508319 127.062439,37.508586 127.062531,37.508614 127.063106,37.508794 127.063275,37.508844 127.063858,37.509025 127.066394,37.509794 127.066569,37.509836 127.067022,37.509911 127.067314,37.509958 127.071086,37.510606 127.071378,37.510656 127.072044,37.510569 127.072517,37.510647 127.075081,37.511067 127.075392,37.511344 127.077533,37.511694 127.077761,37.511733 127.078256,37.511786 127.078436,37.511803 127.078914,37.511842 127.079292,37.511842 127.084336,37.511633 127.085544,37.511583 127.085731,37.511575 127.085875,37.511569 127.087994,37.511483 127.088567,37.511483 127.089500,37.511539 127.091178,37.511703 127.092478,37.511828 127.092658,37.511844 127.093083,37.511889 127.095678,37.512147 127.096286,37.512264 127.098061,37.512692 127.099294,37.512992 127.100147,37.513197 127.100217,37.513264 127.100222,37.513372 127.099706,37.514022 127.099292,37.514544 127.098156,37.515969 127.098058,37.516092 127.097917,37.516278 127.097814,37.516411 127.097556,37.517272 127.096431,37.518811 127.096358,37.518950 127.096325,37.519069 127.096353,37.519197 127.096564,37.519597 127.097058,37.519906 127.098539,37.520769 127.099053,37.521053 127.100133,37.521758 127.100481,37.522011 127.100928,37.522406 127.102606,37.523467 127.103017,37.523744 127.105272,37.525669 127.106492,37.526758 127.106831,37.527089 127.107217,37.527467 127.107783,37.528064 127.108714,37.529006 127.109528,37.529831 127.109808,37.530192 127.109972,37.530650 127.110142,37.531819 127.110242,37.532703 127.110331,37.533169 127.110489,37.533647 127.110717,37.534117 127.110917,37.534464 127.111131,37.534769 127.111481,37.535192 127.111717,37.535419 127.112517,37.536108 127.117744,37.540478 127.118206,37.540897 127.118486,37.541153 127.118981,37.541692 127.119486,37.542322 127.119903,37.542917 127.120319,37.543650 127.121006,37.545089 127.121656,37.546514 127.121928,37.547214 127.122117,37.547797 127.123069,37.550419 127.124131,37.553506 127.124714,37.554981 127.125000,37.555589 127.125442,37.556525 127.126131,37.557856 127.126486,37.558408 127.127458,37.559756 127.128042,37.560450 127.128914,37.561369 127.130053,37.562386 127.131219,37.563358 127.132336,37.564133 127.133169,37.564664 127.134222,37.565256 127.135150,37.565731 127.136017,37.566172 127.136925,37.566556 127.137203,37.566633 127.137981,37.566794 127.138764,37.566875 127.139222,37.566883 127.139942,37.566867 127.140517,37.566833 127.146494,37.566317 127.147281,37.566275 127.147642,37.566275 127.148389,37.566314 127.148756,37.566344 127.149533,37.566467 127.149956,37.566553 127.150692,37.566753 127.151436,37.567031 127.152075,37.567300 127.155136,37.568714 127.158181,37.570042 127.160553,37.571144 127.161425,37.571525 127.162517,37.571939 127.164203,37.572497 127.164644,37.572656 127.165333,37.572903 127.165983,37.573192 127.166481,37.573553 127.167592,37.574308 127.168169,37.574694 127.168650,37.574989 127.169589,37.575497 127.171619,37.576514 127.172894,37.577011 127.174481,37.577519 127.175306,37.577750 127.179406,37.578219 127.180342,37.576136 127.180406,37.576003 127.181203,37.574294 127.181364,37.573961 127.182311,37.572011 127.182378,37.571878 127.183269,37.570269 127.183678,37.569539 127.184875,37.567700 127.185028,37.567444 127.185139,37.567261 127.185192,37.567119 127.185236,37.566783 127.185253,37.566642 127.185494,37.564750 127.185617,37.564108 127.185878,37.563497 127.186239,37.562794 127.187111,37.561092 127.187278,37.560633 127.187411,37.560039 127.187436,37.559894 127.187494,37.559447 127.187608,37.558575 127.187642,37.558158 127.187625,37.557669 127.187547,37.557375 127.186617,37.555428 127.186556,37.555303 127.186386,37.555067 127.186269,37.554942 127.185822,37.554569 127.185492,37.554242 127.185356,37.554078 127.185158,37.553800 127.184967,37.553417 127.184917,37.553269 127.184850,37.553011 127.184817,37.552719 127.184814,37.552703 127.184814,37.552514 127.184867,37.552172 127.184986,37.551756 127.185350,37.550842 127.185453,37.550597 127.185656,37.550258 127.185956,37.550078 127.186303,37.550003 127.186756,37.550217 127.186981,37.550317 127.188092,37.550858 127.188742,37.551219 127.189347,37.551569 127.189625,37.551808 127.190592,37.552375 127.190897,37.552525 127.192394,37.553278 127.192811,37.553464 127.192931,37.553519 127.193400,37.553733 127.193869,37.553931 127.194217,37.554072 127.194608,37.554231 127.195456,37.554556 127.196806,37.555128 127.196806,37.555128 127.197119,37.555281 127.197594,37.555558 127.197633,37.555514 127.198008,37.555256 127.198958,37.554686 127.200081,37.554014 127.200219,37.553919 127.201156,37.553178 127.201578,37.552875 127.201647,37.552833 127.202061,37.552586 127.203347,37.551911 127.203561,37.551828 127.203686,37.551786 127.203858,37.551722 127.204367,37.551614 127.204867,37.551539 127.206147,37.551353 127.206567,37.551300 127.206889,37.551261 127.207106,37.551214 127.207328,37.551139 127.207575,37.551031 127.208414,37.550542 127.208522,37.550478 127.209339,37.550022 127.210783,37.549211 127.210936,37.549117 127.211850,37.548567 127.212128,37.548319 127.211644,37.547803 127.210642,37.546731 127.210642,37.546658 127.210711,37.546569 127.211419,37.546344 127.211453,37.546333 127.212286,37.546214 127.212422,37.546194 127.212808,37.546139 127.213075,37.546122 127.213781,37.546144 127.214344,37.546164 127.214936,37.546150 127.215239,37.546086 127.216025,37.545797 127.216778,37.545664 127.217483,37.545608 127.218311,37.545469 127.220997,37.545019 127.221153,37.544956 127.221831,37.544756 127.223639,37.544225 127.224075,37.544128"
              }
            },
            {
              "mode": "WALK",
              "sectionTime": 225,
              "distance": 275,
              "start": {
                "name": "스타필드하남주차장",
                "lon": 127.22406388888889,
                "lat": 37.5441
              },
              "end": {
                "name": "도착지",
                "lon": 127.22591578,
                "lat": 37.54479452
              },
              "steps": [
                {
                  "streetName": "하남유니온로",
                  "distance": 146,
                  "description": "하남유니온로 을 따라 146m 이동",
                  "linestring": "127.22408,37.544144 127.22449,37.54402 127.22563,37.54369"
                },
                {
                  "streetName": "보행자도로",
                  "distance": 22,
                  "description": "좌측 횡단보도 후 보행자도로 을 따라 22m 이동 ",
                  "linestring": "127.22563,37.54369 127.2257,37.543877"
                },
                {
                  "streetName": "",
                  "distance": 107,
                  "description": "우회전 후 107m 이동 ",
                  "linestring": "127.2257,37.543877 127.22574,37.54387 127.225845,37.5439 127.22616,37.544456 127.22627,37.544674"
                }
              ]
            }
          ],
          "walkTime": 1687,
          "transferCount": 2,
          "totalDistance": 34266,
          "pathType": 3
        },
        {
          "fare": {
            "regular": {
              "totalFare": 1950,
              "currency": {
                "symbol": "￦",
                "currency": "원",
                "currencyCode": "KRW"
              }
            }
          },
          "walkDistance": 729,
          "totalTime": 5991,
          "legs": [
            {
              "mode": "WALK",
              "sectionTime": 211,
              "distance": 260,
              "start": {
                "name": "출발지",
                "lon": 126.92847142,
                "lat": 37.51698683
              },
              "end": {
                "name": "샛강역1번출구.여의도자이",
                "lon": 126.9271611111111,
                "lat": 37.518975
              },
              "steps": [
                {
                  "streetName": "",
                  "distance": 6,
                  "description": "6m 이동",
                  "linestring": "126.92863,37.517082 126.92859,37.517124"
                },
                {
                  "streetName": "",
                  "distance": 39,
                  "description": "우회전 후 39m 이동 ",
                  "linestring": "126.92859,37.517124 126.928665,37.517467"
                },
                {
                  "streetName": "",
                  "distance": 44,
                  "description": "샛강역  1번출구 에서 좌회전 후 44m 이동 ",
                  "linestring": "126.928665,37.517467 126.92834,37.51775 126.928314,37.51774"
                },
                {
                  "streetName": "의사당대로",
                  "distance": 171,
                  "description": "샛강역  1번출구 에서 우회전 후 의사당대로 을 따라 171m 이동 ",
                  "linestring": "126.928314,37.51774 126.92766,37.518425 126.92714,37.518963"
                }
              ]
            },
            {
              "mode": "BUS",
              "routeColor": "53B332",
              "sectionTime": 56,
              "route": "마을:영등포11",
              "distance": 324,
              "start": {
                "name": "샛강역1번출구.여의도자이",
                "lon": 126.9271611111111,
                "lat": 37.518975
              },
              "passStopList": {
                "stationList": [
                  {
                    "index": 0,
                    "stationName": "샛강역1번출구.여의도자이",
                    "lon": "126.927161",
                    "lat": "37.518975",
                    "stationID": "754995"
                  },
                  {
                    "index": 1,
                    "stationName": "여의도역",
                    "lon": "126.924903",
                    "lat": "37.521283",
                    "stationID": "755200"
                  }
                ]
              },
              "end": {
                "name": "여의도역",
                "lon": 126.92490277777777,
                "lat": 37.521283333333336
              },
              "type": 3,
              "passShape": {
                "linestring": "126.927028,37.518892 126.924767,37.521197"
              }
            },
            {
              "mode": "TRANSFER",
              "sectionTime": 175,
              "distance": 0,
              "start": {
                "name": "여의도역",
                "lon": 126.92490277777777,
                "lat": 37.521283333333336
              },
              "end": {
                "name": "여의도",
                "lon": 126.9238111111111,
                "lat": 37.52148611111111
              },
              "passShape": {
                "linestring": "126.924903,37.521283 126.924672,37.521506 126.924636,37.521542 126.924642,37.521589 126.924147,37.521292 126.924125,37.521308 126.924039,37.521333 126.923975,37.521339 126.923928,37.521331 126.923811,37.521486"
              }
            },
            {
              "mode": "SUBWAY",
              "routeColor": "996CAC",
              "sectionTime": 3467,
              "route": "수도권5호선",
              "distance": 29879,
              "start": {
                "name": "여의도",
                "lon": 126.9238111111111,
                "lat": 37.52148611111111
              },
              "passStopList": {
                "stationList": [
                  {
                    "index": 0,
                    "stationName": "여의도",
                    "lon": "126.923811",
                    "lat": "37.521486",
                    "stationID": "526"
                  },
                  {
                    "index": 1,
                    "stationName": "여의나루",
                    "lon": "126.932831",
                    "lat": "37.526819",
                    "stationID": "527"
                  },
                  {
                    "index": 2,
                    "stationName": "마포",
                    "lon": "126.946069",
                    "lat": "37.539378",
                    "stationID": "528"
                  },
                  {
                    "index": 3,
                    "stationName": "공덕",
                    "lon": "126.951369",
                    "lat": "37.544161",
                    "stationID": "529"
                  },
                  {
                    "index": 4,
                    "stationName": "애오개",
                    "lon": "126.956753",
                    "lat": "37.553178",
                    "stationID": "530"
                  },
                  {
                    "index": 5,
                    "stationName": "충정로",
                    "lon": "126.963119",
                    "lat": "37.560008",
                    "stationID": "531"
                  },
                  {
                    "index": 6,
                    "stationName": "서대문",
                    "lon": "126.966669",
                    "lat": "37.565336",
                    "stationID": "532"
                  },
                  {
                    "index": 7,
                    "stationName": "광화문",
                    "lon": "126.976228",
                    "lat": "37.571644",
                    "stationID": "533"
                  },
                  {
                    "index": 8,
                    "stationName": "종로3가",
                    "lon": "126.990144",
                    "lat": "37.572581",
                    "stationID": "534"
                  },
                  {
                    "index": 9,
                    "stationName": "을지로4가",
                    "lon": "126.998075",
                    "lat": "37.567369",
                    "stationID": "535"
                  },
                  {
                    "index": 10,
                    "stationName": "동대문역사문화공원",
                    "lon": "127.005508",
                    "lat": "37.564675",
                    "stationID": "536"
                  },
                  {
                    "index": 11,
                    "stationName": "청구",
                    "lon": "127.013942",
                    "lat": "37.560197",
                    "stationID": "537"
                  },
                  {
                    "index": 12,
                    "stationName": "신금호",
                    "lon": "127.020683",
                    "lat": "37.554472",
                    "stationID": "538"
                  },
                  {
                    "index": 13,
                    "stationName": "행당",
                    "lon": "127.029544",
                    "lat": "37.557364",
                    "stationID": "539"
                  },
                  {
                    "index": 14,
                    "stationName": "왕십리",
                    "lon": "127.037189",
                    "lat": "37.561942",
                    "stationID": "540"
                  },
                  {
                    "index": 15,
                    "stationName": "마장",
                    "lon": "127.042972",
                    "lat": "37.565944",
                    "stationID": "541"
                  },
                  {
                    "index": 16,
                    "stationName": "답십리",
                    "lon": "127.052553",
                    "lat": "37.566964",
                    "stationID": "542"
                  },
                  {
                    "index": 17,
                    "stationName": "장한평",
                    "lon": "127.063825",
                    "lat": "37.561592",
                    "stationID": "543"
                  },
                  {
                    "index": 18,
                    "stationName": "군자",
                    "lon": "127.079056",
                    "lat": "37.557333",
                    "stationID": "544"
                  },
                  {
                    "index": 19,
                    "stationName": "아차산",
                    "lon": "127.089600",
                    "lat": "37.551653",
                    "stationID": "545"
                  },
                  {
                    "index": 20,
                    "stationName": "광나루",
                    "lon": "127.103614",
                    "lat": "37.545344",
                    "stationID": "546"
                  },
                  {
                    "index": 21,
                    "stationName": "천호",
                    "lon": "127.123956",
                    "lat": "37.538469",
                    "stationID": "547"
                  },
                  {
                    "index": 22,
                    "stationName": "강동",
                    "lon": "127.132378",
                    "lat": "37.535914",
                    "stationID": "548"
                  },
                  {
                    "index": 23,
                    "stationName": "길동",
                    "lon": "127.140006",
                    "lat": "37.537803",
                    "stationID": "549"
                  },
                  {
                    "index": 24,
                    "stationName": "굽은다리",
                    "lon": "127.142928",
                    "lat": "37.545567",
                    "stationID": "550"
                  },
                  {
                    "index": 25,
                    "stationName": "명일",
                    "lon": "127.144044",
                    "lat": "37.551450",
                    "stationID": "551"
                  },
                  {
                    "index": 26,
                    "stationName": "고덕",
                    "lon": "127.154142",
                    "lat": "37.554953",
                    "stationID": "552"
                  },
                  {
                    "index": 27,
                    "stationName": "상일동",
                    "lon": "127.166536",
                    "lat": "37.556739",
                    "stationID": "553"
                  },
                  {
                    "index": 28,
                    "stationName": "강일",
                    "lon": "127.175658",
                    "lat": "37.557406",
                    "stationID": "554"
                  },
                  {
                    "index": 29,
                    "stationName": "미사",
                    "lon": "127.192803",
                    "lat": "37.563139",
                    "stationID": "555"
                  }
                ]
              },
              "end": {
                "name": "미사",
                "lon": 127.19280277777777,
                "lat": 37.563138888888886
              },
              "type": 5,
              "passShape": {
                "linestring": "126.923831,37.521467 126.924139,37.521658 126.928597,37.524456 126.931089,37.525947 126.932189,37.526628 126.932275,37.526689 126.932625,37.526978 126.933425,37.527642 126.934114,37.528269 126.934314,37.528453 126.934747,37.528869 126.942075,37.536419 126.943125,37.537508 126.943369,37.537739 126.943536,37.537886 126.943697,37.538014 126.945242,37.539092 126.945856,37.539558 126.947047,37.540461 126.949161,37.541972 126.949403,37.542161 126.949739,37.542450 126.949958,37.542656 126.950344,37.543050 126.950506,37.543242 126.950533,37.543275 126.950553,37.543297 126.951025,37.543950 126.951225,37.544228 126.951475,37.544569 126.953403,37.547250 126.953775,37.547772 126.953958,37.548064 126.953964,37.548072 126.954369,37.548828 126.955936,37.551917 126.956581,37.553231 126.957106,37.554303 126.957800,37.555711 126.957811,37.555733 126.957822,37.555753 126.957836,37.555772 126.957847,37.555794 126.957861,37.555814 126.957875,37.555836 126.957889,37.555856 126.957903,37.555875 126.957917,37.555894 126.957931,37.555917 126.957944,37.555933 126.957958,37.555956 126.957975,37.555972 126.957992,37.555992 126.958006,37.556011 126.958022,37.556031 126.958039,37.556050 126.958056,37.556067 126.958075,37.556086 126.958092,37.556106 126.958108,37.556122 126.958808,37.556764 126.959458,37.557292 126.962275,37.559581 126.962675,37.559894 126.962814,37.560125 126.963294,37.560917 126.963850,37.561833 126.964056,37.562153 126.964269,37.562469 126.965511,37.564322 126.965733,37.564639 126.966067,37.565089 126.966128,37.565164 126.966408,37.565483 126.967206,37.566392 126.967275,37.566464 126.968917,37.568117 126.968933,37.568136 126.968956,37.568156 126.968975,37.568178 126.968994,37.568197 126.969014,37.568217 126.969036,37.568236 126.969056,37.568256 126.969078,37.568275 126.969100,37.568294 126.969119,37.568314 126.969142,37.568333 126.969167,37.568350 126.969189,37.568369 126.969211,37.568386 126.969233,37.568406 126.969258,37.568422 126.969281,37.568439 126.969306,37.568456 126.969331,37.568475 126.969353,37.568492 126.969378,37.568506 126.971431,37.569897 126.971703,37.570050 126.972250,37.570322 126.972383,37.570403 126.972650,37.570583 126.973581,37.571289 126.973717,37.571378 126.973850,37.571453 126.974033,37.571533 126.974281,37.571600 126.974503,37.571631 126.974733,37.571647 126.976228,37.571647 126.977031,37.571647 126.980692,37.571664 126.980806,37.571664 126.980917,37.571669 126.981031,37.571675 126.981142,37.571681 126.981253,37.571689 126.981367,37.571697 126.981478,37.571708 126.981589,37.571719 126.981700,37.571733 126.981811,37.571747 126.981922,37.571764 126.982031,37.571781 126.982142,37.571800 126.982253,37.571819 126.982361,37.571839 126.982469,37.571861 126.982578,37.571886 126.982686,37.571911 126.982794,37.571936 126.982900,37.571964 126.983008,37.571992 126.983192,37.572044 126.983375,37.572097 126.983561,37.572144 126.983747,37.572192 126.983933,37.572233 126.984125,37.572275 126.984314,37.572314 126.984503,37.572350 126.984692,37.572383 126.984883,37.572417 126.985075,37.572444 126.985267,37.572472 126.985461,37.572494 126.985653,37.572517 126.985847,37.572539 126.986042,37.572556 126.986236,37.572569 126.986431,37.572581 126.986625,37.572592 126.986819,37.572600 126.987014,37.572603 126.988800,37.572569 126.989253,37.572567 126.989867,37.572578 126.990144,37.572581 126.990400,37.572583 126.991544,37.572597 126.991639,37.572597 126.993003,37.572606 126.993025,37.572606 126.993047,37.572606 126.993069,37.572606 126.993092,37.572603 126.993114,37.572603 126.993136,37.572600 126.993158,37.572597 126.993181,37.572594 126.993203,37.572592 126.993225,37.572586 126.993247,37.572581 126.993267,37.572578 126.993289,37.572572 126.993311,37.572567 126.993331,37.572558 126.993353,37.572553 126.993375,37.572544 126.993394,37.572539 126.993414,37.572531 126.993433,37.572522 126.993453,37.572514 126.995675,37.571453 126.996056,37.571261 126.997092,37.570711 126.997125,37.570689 126.997272,37.570603 126.997453,37.570481 126.997486,37.570458 126.997517,37.570436 126.997547,37.570411 126.997575,37.570386 126.997603,37.570358 126.997631,37.570333 126.997653,37.570306 126.997678,37.570275 126.997700,37.570247 126.997719,37.570217 126.997739,37.570186 126.997758,37.570156 126.997775,37.570125 126.997789,37.570092 126.997803,37.570058 126.997814,37.570028 126.997825,37.569994 126.997833,37.569961 126.997839,37.569928 126.997844,37.569894 126.997850,37.569858 126.998067,37.567369 126.998108,37.566919 126.998153,37.566642 126.998181,37.566472 126.998217,37.566356 126.998267,37.566242 126.998328,37.566125 126.998392,37.566014 126.998464,37.565903 126.998539,37.565797 126.998622,37.565692 126.998708,37.565589 126.998803,37.565492 126.998903,37.565394 126.999006,37.565306 126.999114,37.565217 126.999228,37.565131 126.999344,37.565053 126.999467,37.564975 126.999594,37.564903 126.999722,37.564836 126.999856,37.564772 126.999994,37.564714 127.000133,37.564661 127.000275,37.564611 127.000419,37.564567 127.000483,37.564553 127.000558,37.564542 127.000650,37.564531 127.000725,37.564525 127.000783,37.564528 127.001658,37.564586 127.003350,37.564683 127.004317,37.564756 127.005044,37.564733 127.005508,37.564675 127.005667,37.564653 127.006281,37.564542 127.006317,37.564536 127.006353,37.564531 127.006389,37.564522 127.006425,37.564514 127.006458,37.564506 127.006494,37.564494 127.006528,37.564486 127.006564,37.564475 127.006597,37.564464 127.006631,37.564450 127.006664,37.564439 127.006694,37.564425 127.006728,37.564408 127.006758,37.564394 127.006792,37.564378 127.006819,37.564361 127.006850,37.564344 127.006881,37.564328 127.006908,37.564308 127.006936,37.564289 127.006964,37.564269 127.007014,37.564231 127.010700,37.561389 127.010731,37.561367 127.010764,37.561344 127.010794,37.561322 127.010828,37.561303 127.010861,37.561281 127.010894,37.561261 127.010931,37.561242 127.010964,37.561222 127.011000,37.561206 127.011036,37.561186 127.011072,37.561169 127.011108,37.561153 127.011144,37.561133 127.011181,37.561119 127.011219,37.561103 127.011256,37.561089 127.011294,37.561075 127.011333,37.561058 127.011369,37.561044 127.011408,37.561033 127.011450,37.561019 127.012167,37.560814 127.012797,37.560614 127.013461,37.560381 127.013783,37.560256 127.013942,37.560197 127.014625,37.559933 127.015369,37.559650 127.015386,37.559644 127.015403,37.559639 127.015419,37.559631 127.015436,37.559622 127.015453,37.559617 127.015467,37.559608 127.015483,37.559600 127.015497,37.559592 127.015514,37.559583 127.015528,37.559575 127.015542,37.559564 127.015556,37.559556 127.015569,37.559544 127.015583,37.559533 127.015594,37.559525 127.015608,37.559514 127.015619,37.559503 127.015631,37.559492 127.015644,37.559478 127.015656,37.559467 127.015667,37.559456 127.016708,37.558319 127.017517,37.557358 127.018647,37.555922 127.019161,37.555331 127.019425,37.555039 127.019622,37.554831 127.019631,37.554825 127.019639,37.554817 127.019647,37.554808 127.019656,37.554803 127.019664,37.554794 127.019675,37.554789 127.019683,37.554781 127.019692,37.554775 127.019700,37.554769 127.019708,37.554764 127.019719,37.554756 127.019728,37.554750 127.019739,37.554744 127.019747,37.554739 127.019758,37.554733 127.019767,37.554728 127.019778,37.554722 127.019789,37.554717 127.019800,37.554711 127.019808,37.554706 127.019819,37.554700 127.020028,37.554631 127.020375,37.554508 127.020583,37.554475 127.020683,37.554472 127.021544,37.554458 127.021656,37.554469 127.021697,37.554475 127.021739,37.554483 127.021778,37.554489 127.021819,37.554497 127.021861,37.554506 127.021900,37.554514 127.021942,37.554522 127.021981,37.554531 127.022022,37.554542 127.022064,37.554550 127.022103,37.554558 127.022142,37.554569 127.022183,37.554581 127.022222,37.554592 127.022264,37.554603 127.022303,37.554614 127.022342,37.554625 127.022381,37.554639 127.022419,37.554650 127.022458,37.554664 127.022497,37.554678 127.025817,37.555694 127.026233,37.555833 127.026517,37.555939 127.026842,37.556072 127.027033,37.556158 127.029547,37.557358 127.030203,37.557675 127.030981,37.558056 127.031258,37.558211 127.032717,37.559119 127.035900,37.561136 127.036264,37.561367 127.037189,37.561942 127.037650,37.562228 127.038308,37.562647 127.038317,37.562653 127.041961,37.565467 127.042214,37.565644 127.042856,37.566058 127.043956,37.566769 127.046308,37.568328 127.046469,37.568417 127.046658,37.568517 127.046869,37.568608 127.047044,37.568675 127.047142,37.568714 127.047331,37.568758 127.047522,37.568797 127.047717,37.568828 127.047814,37.568839 127.047911,37.568850 127.048108,37.568867 127.048306,37.568872 127.048503,37.568872 127.048700,37.568864 127.048897,37.568850 127.049092,37.568825 127.049286,37.568794 127.049478,37.568756 127.049667,37.568708 127.049850,37.568656 127.050033,37.568594 127.050211,37.568528 127.050383,37.568453 127.050553,37.568369 127.050717,37.568283 127.050875,37.568189 127.051028,37.568089 127.052553,37.566964 127.057828,37.563069 127.057914,37.563008 127.058000,37.562947 127.058089,37.562889 127.058181,37.562831 127.058275,37.562775 127.058369,37.562719 127.058464,37.562669 127.058561,37.562617 127.058661,37.562569 127.058761,37.562522 127.058864,37.562478 127.058967,37.562433 127.059069,37.562394 127.059175,37.562356 127.059283,37.562317 127.059389,37.562283 127.059500,37.562250 127.059608,37.562219 127.059719,37.562189 127.059831,37.562164 127.059942,37.562139 127.061669,37.561886 127.063825,37.561592 127.065286,37.561394 127.069183,37.560800 127.070533,37.560606 127.070814,37.560544 127.071131,37.560458 127.071383,37.560378 127.075564,37.558686 127.079056,37.557333 127.079506,37.557161 127.086556,37.554433 127.087156,37.554181 127.087258,37.554142 127.087358,37.554100 127.087458,37.554056 127.087558,37.554014 127.087658,37.553967 127.087756,37.553917 127.087850,37.553867 127.087944,37.553817 127.088036,37.553764 127.088128,37.553708 127.088217,37.553653 127.088306,37.553594 127.088392,37.553533 127.088478,37.553472 127.088558,37.553411 127.088639,37.553344 127.088719,37.553281 127.088797,37.553214 127.088872,37.553144 127.088944,37.553075 127.089017,37.553006 127.089364,37.552544 127.089747,37.551850 127.089814,37.551725 127.090158,37.551081 127.090208,37.551000 127.090542,37.550497 127.090589,37.550428 127.090639,37.550358 127.090692,37.550292 127.090747,37.550225 127.090806,37.550158 127.090864,37.550097 127.090928,37.550033 127.090992,37.549975 127.091058,37.549914 127.091128,37.549858 127.091200,37.549803 127.091275,37.549750 127.091350,37.549697 127.091428,37.549647 127.091506,37.549600 127.091589,37.549553 127.091669,37.549508 127.091756,37.549467 127.091842,37.549425 127.091931,37.549389 127.092019,37.549353 127.094042,37.548639 127.102342,37.545714 127.103614,37.545344 127.103789,37.545292 127.105308,37.544847 127.118747,37.540981 127.118794,37.540967 127.118839,37.540953 127.118883,37.540936 127.118928,37.540919 127.118972,37.540903 127.119017,37.540886 127.119058,37.540867 127.119103,37.540850 127.119147,37.540831 127.119189,37.540811 127.119231,37.540792 127.119275,37.540772 127.119317,37.540753 127.119358,37.540731 127.119400,37.540708 127.119439,37.540689 127.119481,37.540667 127.119519,37.540642 127.119558,37.540619 127.119600,37.540597 127.119639,37.540572 127.121431,37.539506 127.121803,37.539300 127.121994,37.539206 127.122383,37.539022 127.122686,37.538894 127.123094,37.538742 127.123411,37.538642 127.123956,37.538469 127.125000,37.538139 127.131139,37.536294 127.132367,37.535889 127.132400,37.535878 127.137453,37.534417 127.137544,37.534408 127.137639,37.534406 127.137733,37.534408 127.137828,37.534414 127.137919,37.534425 127.138011,37.534442 127.138103,37.534464 127.138189,37.534489 127.138275,37.534519 127.138358,37.534556 127.138439,37.534594 127.138514,37.534639 127.138589,37.534686 127.138656,37.534736 127.138719,37.534792 127.138778,37.534850 127.138833,37.534911 127.138881,37.534975 127.138925,37.535042 127.138964,37.535108 127.138994,37.535181 127.140014,37.537800 127.140217,37.538325 127.140742,37.539814 127.142622,37.544719 127.142928,37.545567 127.143175,37.546239 127.143208,37.546383 127.143247,37.546597 127.143628,37.548800 127.144000,37.550967 127.144044,37.551450 127.144050,37.551528 127.144086,37.552222 127.144094,37.552314 127.144331,37.554150 127.144339,37.554189 127.144347,37.554228 127.144361,37.554267 127.144378,37.554306 127.144400,37.554342 127.144422,37.554375 127.144447,37.554411 127.144478,37.554442 127.144508,37.554472 127.144542,37.554503 127.144578,37.554531 127.144617,37.554556 127.144656,37.554581 127.144700,37.554600 127.144742,37.554619 127.144789,37.554636 127.144833,37.554650 127.144883,37.554664 127.144931,37.554672 127.144981,37.554678 127.145031,37.554683 127.150192,37.554683 127.151158,37.554689 127.151386,37.554697 127.151608,37.554714 127.151833,37.554736 127.153303,37.554936 127.154119,37.555053 127.155142,37.555203 127.160342,37.555914 127.164906,37.556539 127.165353,37.556592 127.166564,37.556742 127.168131,37.556964 127.169539,37.557131 127.170211,37.557133 127.171206,37.557178 127.172175,37.557192 127.173269,37.557194 127.173903,37.557194 127.174550,37.557239 127.175181,37.557314 127.175658,37.557406 127.181197,37.558697 127.185625,37.559722 127.186867,37.559964 127.187450,37.560275 127.188167,37.560908 127.188839,37.561592 127.189494,37.562022 127.189958,37.562272 127.190617,37.562550 127.191619,37.562814 127.192803,37.563139"
              }
            },
            {
              "mode": "TRANSFER",
              "sectionTime": 1194,
              "distance": 0,
              "start": {
                "name": "미사",
                "lon": 127.19280277777777,
                "lat": 37.563138888888886
              },
              "end": { "name": "미사역", "lon": 127.192575, "lat": 37.5634 },
              "passShape": {
                "linestring": "127.192803,37.563139 127.192800,37.563297 127.192486,37.563219 127.192456,37.563300 127.192594,37.563333 127.192575,37.563400"
              }
            },
            {
              "mode": "BUS",
              "routeColor": "53B332",
              "sectionTime": 663,
              "route": "일반:87",
              "distance": 3831,
              "start": { "name": "미사역", "lon": 127.192575, "lat": 37.5634 },
              "passStopList": {
                "stationList": [
                  {
                    "index": 0,
                    "stationName": "미사역",
                    "lon": "127.192575",
                    "lat": "37.563400",
                    "stationID": "774847"
                  },
                  {
                    "index": 1,
                    "stationName": "청아초등학교.신안인스빌.브라운스톤",
                    "lon": "127.195319",
                    "lat": "37.558425",
                    "stationID": "774657"
                  },
                  {
                    "index": 2,
                    "stationName": "풍경채1단지.덕풍중학교",
                    "lon": "127.198942",
                    "lat": "37.554667",
                    "stationID": "774460"
                  },
                  {
                    "index": 3,
                    "stationName": "하남풍산역.꽃뫼마을1단지",
                    "lon": "127.201597",
                    "lat": "37.552778",
                    "stationID": "774385"
                  },
                  {
                    "index": 4,
                    "stationName": "하남풍산역.덕풍지구대",
                    "lon": "127.204858",
                    "lat": "37.551503",
                    "stationID": "774329"
                  },
                  {
                    "index": 5,
                    "stationName": "나룰.풍산근린3호공원",
                    "lon": "127.206564",
                    "lat": "37.551283",
                    "stationID": "774316"
                  },
                  {
                    "index": 6,
                    "stationName": "새뜰마을3단지",
                    "lon": "127.209317",
                    "lat": "37.550000",
                    "stationID": "774256"
                  },
                  {
                    "index": 7,
                    "stationName": "신평마을앞",
                    "lon": "127.211597",
                    "lat": "37.547831",
                    "stationID": "774148"
                  },
                  {
                    "index": 8,
                    "stationName": "호반써밋에듀파크",
                    "lon": "127.211408",
                    "lat": "37.546317",
                    "stationID": "774087"
                  },
                  {
                    "index": 9,
                    "stationName": "대명루첸.신평마을",
                    "lon": "127.213778",
                    "lat": "37.546147",
                    "stationID": "774074"
                  },
                  {
                    "index": 10,
                    "stationName": "유니온타워.에일린의뜰",
                    "lon": "127.218314",
                    "lat": "37.545472",
                    "stationID": "774037"
                  },
                  {
                    "index": 11,
                    "stationName": "스타필드하남",
                    "lon": "127.221825",
                    "lat": "37.544744",
                    "stationID": "774003"
                  },
                  {
                    "index": 12,
                    "stationName": "스타필드하남주차장",
                    "lon": "127.224064",
                    "lat": "37.544100",
                    "stationID": "773964"
                  }
                ]
              },
              "end": {
                "name": "스타필드하남주차장",
                "lon": 127.22406388888889,
                "lat": 37.5441
              },
              "type": 1,
              "passShape": {
                "linestring": "127.192661,37.563419 127.193217,37.561989 127.193497,37.561283 127.193672,37.560911 127.193742,37.560778 127.194047,37.560281 127.194803,37.559217 127.195383,37.558453 127.197458,37.555725 127.197633,37.555514 127.198008,37.555256 127.198958,37.554686 127.200081,37.554014 127.200219,37.553919 127.201156,37.553178 127.201578,37.552875 127.201647,37.552833 127.202061,37.552586 127.203347,37.551911 127.203561,37.551828 127.203686,37.551786 127.203858,37.551722 127.204367,37.551614 127.204867,37.551539 127.206147,37.551353 127.206567,37.551300 127.206889,37.551261 127.207106,37.551214 127.207328,37.551139 127.207575,37.551031 127.208414,37.550542 127.208522,37.550478 127.209339,37.550022 127.210783,37.549211 127.210936,37.549117 127.211850,37.548567 127.212128,37.548319 127.211644,37.547803 127.210642,37.546731 127.210642,37.546658 127.210711,37.546569 127.211419,37.546344 127.211453,37.546333 127.212286,37.546214 127.212422,37.546194 127.212808,37.546139 127.213075,37.546122 127.213781,37.546144 127.214344,37.546164 127.214936,37.546150 127.215239,37.546086 127.216025,37.545797 127.216778,37.545664 127.217483,37.545608 127.218311,37.545469 127.220997,37.545019 127.221153,37.544956 127.221831,37.544756 127.223639,37.544225 127.224075,37.544128"
              }
            },
            {
              "mode": "WALK",
              "sectionTime": 225,
              "distance": 275,
              "start": {
                "name": "스타필드하남주차장",
                "lon": 127.22406388888889,
                "lat": 37.5441
              },
              "end": {
                "name": "도착지",
                "lon": 127.22591578,
                "lat": 37.54479452
              },
              "steps": [
                {
                  "streetName": "하남유니온로",
                  "distance": 146,
                  "description": "하남유니온로 을 따라 146m 이동",
                  "linestring": "127.22408,37.544144 127.22449,37.54402 127.22563,37.54369"
                },
                {
                  "streetName": "보행자도로",
                  "distance": 22,
                  "description": "좌측 횡단보도 후 보행자도로 을 따라 22m 이동 ",
                  "linestring": "127.22563,37.54369 127.2257,37.543877"
                },
                {
                  "streetName": "",
                  "distance": 107,
                  "description": "우회전 후 107m 이동 ",
                  "linestring": "127.2257,37.543877 127.22574,37.54387 127.225845,37.5439 127.22616,37.544456 127.22627,37.544674"
                }
              ]
            }
          ],
          "walkTime": 1805,
          "transferCount": 2,
          "totalDistance": 34659,
          "pathType": 3
        },
        {
          "fare": {
            "regular": {
              "totalFare": 2050,
              "currency": {
                "symbol": "￦",
                "currency": "원",
                "currencyCode": "KRW"
              }
            }
          },
          "walkDistance": 798,
          "totalTime": 5991,
          "legs": [
            {
              "mode": "WALK",
              "sectionTime": 211,
              "distance": 260,
              "start": {
                "name": "출발지",
                "lon": 126.92847142,
                "lat": 37.51698683
              },
              "end": {
                "name": "샛강역1번출구.여의도자이",
                "lon": 126.9271611111111,
                "lat": 37.518975
              },
              "steps": [
                {
                  "streetName": "",
                  "distance": 6,
                  "description": "6m 이동",
                  "linestring": "126.92863,37.517082 126.92859,37.517124"
                },
                {
                  "streetName": "",
                  "distance": 39,
                  "description": "우회전 후 39m 이동 ",
                  "linestring": "126.92859,37.517124 126.928665,37.517467"
                },
                {
                  "streetName": "",
                  "distance": 44,
                  "description": "샛강역  1번출구 에서 좌회전 후 44m 이동 ",
                  "linestring": "126.928665,37.517467 126.92834,37.51775 126.928314,37.51774"
                },
                {
                  "streetName": "의사당대로",
                  "distance": 171,
                  "description": "샛강역  1번출구 에서 우회전 후 의사당대로 을 따라 171m 이동 ",
                  "linestring": "126.928314,37.51774 126.92766,37.518425 126.92714,37.518963"
                }
              ]
            },
            {
              "mode": "BUS",
              "routeColor": "53B332",
              "sectionTime": 56,
              "route": "마을:영등포11",
              "distance": 324,
              "start": {
                "name": "샛강역1번출구.여의도자이",
                "lon": 126.9271611111111,
                "lat": 37.518975
              },
              "passStopList": {
                "stationList": [
                  {
                    "index": 0,
                    "stationName": "샛강역1번출구.여의도자이",
                    "lon": "126.927161",
                    "lat": "37.518975",
                    "stationID": "754995"
                  },
                  {
                    "index": 1,
                    "stationName": "여의도역",
                    "lon": "126.924903",
                    "lat": "37.521283",
                    "stationID": "755200"
                  }
                ]
              },
              "end": {
                "name": "여의도역",
                "lon": 126.92490277777777,
                "lat": 37.521283333333336
              },
              "type": 3,
              "passShape": {
                "linestring": "126.927028,37.518892 126.924767,37.521197"
              }
            },
            {
              "mode": "TRANSFER",
              "sectionTime": 183,
              "distance": 0,
              "start": {
                "name": "여의도역",
                "lon": 126.92490277777777,
                "lat": 37.521283333333336
              },
              "end": {
                "name": "여의도",
                "lon": 126.92419722222222,
                "lat": 37.521594444444446
              },
              "passShape": {
                "linestring": "126.924903,37.521283 126.924672,37.521506 126.924636,37.521542 126.924642,37.521589 126.924197,37.521594"
              }
            },
            {
              "mode": "SUBWAY",
              "routeColor": "BDB092",
              "sectionTime": 2101,
              "route": "수도권9호선(급행)",
              "distance": 21401,
              "start": {
                "name": "여의도",
                "lon": 126.92419722222222,
                "lat": 37.521594444444446
              },
              "passStopList": {
                "stationList": [
                  {
                    "index": 0,
                    "stationName": "여의도",
                    "lon": "126.924197",
                    "lat": "37.521594",
                    "stationID": "915"
                  },
                  {
                    "index": 1,
                    "stationName": "노량진",
                    "lon": "126.940767",
                    "lat": "37.513583",
                    "stationID": "917"
                  },
                  {
                    "index": 2,
                    "stationName": "동작",
                    "lon": "126.977981",
                    "lat": "37.503258",
                    "stationID": "920"
                  },
                  {
                    "index": 3,
                    "stationName": "고속터미널",
                    "lon": "127.004347",
                    "lat": "37.506011",
                    "stationID": "923"
                  },
                  {
                    "index": 4,
                    "stationName": "신논현",
                    "lon": "127.025422",
                    "lat": "37.504753",
                    "stationID": "925"
                  },
                  {
                    "index": 5,
                    "stationName": "선정릉",
                    "lon": "127.043356",
                    "lat": "37.510117",
                    "stationID": "927"
                  },
                  {
                    "index": 6,
                    "stationName": "봉은사",
                    "lon": "127.060206",
                    "lat": "37.514239",
                    "stationID": "929"
                  },
                  {
                    "index": 7,
                    "stationName": "종합운동장",
                    "lon": "127.076150",
                    "lat": "37.511514",
                    "stationID": "930"
                  },
                  {
                    "index": 8,
                    "stationName": "석촌",
                    "lon": "127.106744",
                    "lat": "37.504964",
                    "stationID": "933"
                  },
                  {
                    "index": 9,
                    "stationName": "올림픽공원",
                    "lon": "127.130250",
                    "lat": "37.516094",
                    "stationID": "936"
                  },
                  {
                    "index": 10,
                    "stationName": "중앙보훈병원",
                    "lon": "127.148256",
                    "lat": "37.528044",
                    "stationID": "938"
                  }
                ]
              },
              "end": {
                "name": "중앙보훈병원",
                "lon": 127.14825555555555,
                "lat": 37.52804444444445
              },